$GPGGA,113714.231,5104.309,N,01335.884,E,1,12,1.0,0.0,M,0.0,M,,*65
$GPGSA,A,3,01,02,03,04,05,06,07,08,09,10,11,12,1.0,1.0,1.0*30
$GPRMC,113714.231,A,5104.309,N,01335.884,E,008.8,085.5,121021,000.0,W*78
$GPGGA,113715.231,5104.309,N,01335.887,E,1,12,1.0,0.0,M,0.0,M,,*67
$GPGSA,A,3,01,02,03,04,05,06,07,08,09,10,11,12,1.0,1.0,1.0*30
$GPRMC,113715.231,A,5104.309,N,01335.887,E,008.4,088.4,121021,000.0,W*7A
$GPGGA,113716.231,5104.309,N,01335.891,E,1,12,1.0,0.0,M,0.0,M,,*63
$GPGSA,A,3,01,02,03,04,05,06,07,08,09,10,11,12,1.0,1.0,1.0*30
$GPRMC,113716.231,A,5104.309,N,01335.891,E,005.8,090.0,121021,000.0,W*72
$GPGGA,113717.231,5104.309,N,01335.894,E,1,12,1.0,0.0,M,0.0,M,,*67
$GPGSA,A,3,01,02,03,04,05,06,07,08,09,10,11,12,1.0,1.0,1.0*30
$GPRMC,113717.231,A,5104.309,N,01335.894,E,006.2,092.1,121021,000.0,W*7C
$GPGGA,113718.231,5104.309,N,01335.896,E,1,12,1.0,0.0,M,0.0,M,,*6A
$GPGSA,A,3,01,02,03,04,05,06,07,08,09,10,11,12,1.0,1.0,1.0*30
$GPRMC,113718.231,A,5104.309,N,01335.896,E,005.1,087.4,121021,000.0,W*70
$GPGGA,113719.231,5104.309,N,01335.899,E,1,12,1.0,0.0,M,0.0,M,,*64
$GPGSA,A,3,01,02,03,04,05,06,07,08,09,10,11,12,1.0,1.0,1.0*30
$GPRMC,113719.231,A,5104.309,N,01335.899,E,006.6,092.0,121021,000.0,W*7A
$GPGGA,113720.231,5104.309,N,01335.902,E,1,12,1.0,0.0,M,0.0,M,,*6D
$GPGSA,A,3,01,02,03,04,05,06,07,08,09,10,11,12,1.0,1.0,1.0*30
$GPRMC,113720.231,A,5104.309,N,01335.902,E,006.6,102.6,121021,000.0,W*7D
$GPGGA,113721.231,5104.308,N,01335.904,E,1,12,1.0,0.0,M,0.0,M,,*6B
$GPGSA,A,3,01,02,03,04,05,06,07,08,09,10,11,12,1.0,1.0,1.0*30
$GPRMC,113721.231,A,5104.308,N,01335.904,E,004.1,096.5,121021,000.0,W*71
$GPGGA,113722.231,5104.308,N,01335.906,E,1,12,1.0,0.0,M,0.0,M,,*6A
$GPGSA,A,3,01,02,03,04,05,06,07,08,09,10,11,12,1.0,1.0,1.0*30
$GPRMC,113722.231,A,5104.308,N,01335.906,E,007.0,093.8,121021,000.0,W*7A
$GPGGA,113723.231,5104.308,N,01335.909,E,1,12,1.0,0.0,M,0.0,M,,*64
$GPGSA,A,3,01,02,03,04,05,06,07,08,09,10,11,12,1.0,1.0,1.0*30
$GPRMC,113723.231,A,5104.308,N,01335.909,E,009.0,099.0,121021,000.0,W*78
$GPGGA,113724.231,5104.307,N,01335.913,E,1,12,1.0,0.0,M,0.0,M,,*67
$GPGSA,A,3,01,02,03,04,05,06,07,08,09,10,11,12,1.0,1.0,1.0*30
$GPRMC,113724.231,A,5104.307,N,01335.913,E,008.4,091.6,121021,000.0,W*70
$GPGGA,113725.231,5104.307,N,01335.917,E,1,12,1.0,0.0,M,0.0,M,,*62
$GPGSA,A,3,01,02,03,04,05,06,07,08,09,10,11,12,1.0,1.0,1.0*30
$GPRMC,113725.231,A,5104.307,N,01335.917,E,008.7,099.3,121021,000.0,W*7B
$GPGGA,113726.231,5104.307,N,01335.920,E,1,12,1.0,0.0,M,0.0,M,,*65
$GPGSA,A,3,01,02,03,04,05,06,07,08,09,10,11,12,1.0,1.0,1.0*30
$GPRMC,113726.231,A,5104.307,N,01335.920,E,005.9,096.7,121021,000.0,W*74
$GPGGA,113727.231,5104.306,N,01335.923,E,1,12,1.0,0.0,M,0.0,M,,*66
$GPGSA,A,3,01,02,03,04,05,06,07,08,09,10,11,12,1.0,1.0,1.0*30
$GPRMC,113727.231,A,5104.306,N,01335.923,E,008.4,113.3,121021,000.0,W*7F
$GPGGA,113728.231,5104.305,N,01335.926,E,1,12,1.0,0.0,M,0.0,M,,*6F
$GPGSA,A,3,01,02,03,04,05,06,07,08,09,10,11,12,1.0,1.0,1.0*30
$GPRMC,113728.231,A,5104.305,N,01335.926,E,005.8,113.6,121021,000.0,W*72
$GPGGA,113729.231,5104.304,N,01335.928,E,1,12,1.0,0.0,M,0.0,M,,*61
$GPGSA,A,3,01,02,03,04,05,06,07,08,09,10,11,12,1.0,1.0,1.0*30
$GPRMC,113729.231,A,5104.304,N,01335.928,E,003.6,130.1,121021,000.0,W*72
$GPGGA,113730.231,5104.303,N,01335.929,E,1,12,1.0,0.0,M,0.0,M,,*6F
$GPGSA,A,3,01,02,03,04,05,06,07,08,09,10,11,12,1.0,1.0,1.0*30
$GPRMC,113730.231,A,5104.303,N,01335.929,E,004.6,122.2,121021,000.0,W*7B
$GPGGA,113731.231,5104.302,N,01335.931,E,1,12,1.0,0.0,M,0.0,M,,*66
$GPGSA,A,3,01,02,03,04,05,06,07,08,09,10,11,12,1.0,1.0,1.0*30
$GPRMC,113731.231,A,5104.302,N,01335.931,E,004.9,159.9,121021,000.0,W*7A
$GPGGA,113732.231,5104.301,N,01335.931,E,1,12,1.0,0.0,M,0.0,M,,*66
$GPGSA,A,3,01,02,03,04,05,06,07,08,09,10,11,12,1.0,1.0,1.0*30
$GPRMC,113732.231,A,5104.301,N,01335.931,E,006.6,133.4,121021,000.0,W*76
$GPGGA,113733.231,5104.299,N,01335.933,E,1,12,1.0,0.0,M,0.0,M,,*65
$GPGSA,A,3,01,02,03,04,05,06,07,08,09,10,11,12,1.0,1.0,1.0*30
$GPRMC,113733.231,A,5104.299,N,01335.933,E,015.3,220.6,121021,000.0,W*71
$GPGGA,113734.231,5104.296,N,01335.929,E,1,12,1.0,0.0,M,0.0,M,,*66
$GPGSA,A,3,01,02,03,04,05,06,07,08,09,10,11,12,1.0,1.0,1.0*30
$GPRMC,113734.231,A,5104.296,N,01335.929,E,009.8,268.7,121021,000.0,W*79
$GPGGA,113735.231,5104.296,N,01335.925,E,1,12,1.0,0.0,M,0.0,M,,*6B
$GPGSA,A,3,01,02,03,04,05,06,07,08,09,10,11,12,1.0,1.0,1.0*30
$GPRMC,113735.231,A,5104.296,N,01335.925,E,011.2,286.3,121021,000.0,W*73
$GPGGA,113736.231,5104.297,N,01335.921,E,1,12,1.0,0.0,M,0.0,M,,*6D
$GPGSA,A,3,01,02,03,04,05,06,07,08,09,10,11,12,1.0,1.0,1.0*30
$GPRMC,113736.231,A,5104.297,N,01335.921,E,001.9,277.2,121021,000.0,W*70
$GPGGA,113737.231,5104.297,N,01335.920,E,1,12,1.0,0.0,M,0.0,M,,*6D
$GPGSA,A,3,01,02,03,04,05,06,07,08,09,10,11,12,1.0,1.0,1.0*30
$GPRMC,113737.231,A,5104.297,N,01335.920,E,006.5,259.5,121021,000.0,W*70
$GPGGA,113738.231,5104.297,N,01335.917,E,1,12,1.0,0.0,M,0.0,M,,*66
$GPGSA,A,3,01,02,03,04,05,06,07,08,09,10,11,12,1.0,1.0,1.0*30
$GPRMC,113738.231,A,5104.297,N,01335.917,E,009.4,278.6,121021,000.0,W*75
$GPGGA,113739.231,5104.297,N,01335.913,E,1,12,1.0,0.0,M,0.0,M,,*63
$GPGSA,A,3,01,02,03,04,05,06,07,08,09,10,11,12,1.0,1.0,1.0*30
$GPRMC,113739.231,A,5104.297,N,01335.913,E,005.9,274.5,121021,000.0,W*7E
$GPGGA,113740.231,5104.297,N,01335.910,E,1,12,1.0,0.0,M,0.0,M,,*6E
$GPGSA,A,3,01,02,03,04,05,06,07,08,09,10,11,12,1.0,1.0,1.0*30
$GPRMC,113740.231,A,5104.297,N,01335.910,E,004.7,284.7,121021,000.0,W*71
$GPGGA,113741.231,5104.298,N,01335.909,E,1,12,1.0,0.0,M,0.0,M,,*68
$GPGSA,A,3,01,02,03,04,05,06,07,08,09,10,11,12,1.0,1.0,1.0*30
$GPRMC,113741.231,A,5104.298,N,01335.909,E,005.0,281.0,121021,000.0,W*73
$GPGGA,113742.231,5104.298,N,01335.906,E,1,12,1.0,0.0,M,0.0,M,,*64
$GPGSA,A,3,01,02,03,04,05,06,07,08,09,10,11,12,1.0,1.0,1.0*30
$GPRMC,113742.231,A,5104.298,N,01335.906,E,009.5,272.8,121021,000.0,W*72
$GPGGA,113743.231,5104.298,N,01335.902,E,1,12,1.0,0.0,M,0.0,M,,*61
$GPGSA,A,3,01,02,03,04,05,06,07,08,09,10,11,12,1.0,1.0,1.0*30
$GPRMC,113743.231,A,5104.298,N,01335.902,E,021.9,277.3,121021,000.0,W*7F
$GPGGA,113744.231,5104.300,N,01335.893,E,1,12,1.0,0.0,M,0.0,M,,*6F
$GPGSA,A,3,01,02,03,04,05,06,07,08,09,10,11,12,1.0,1.0,1.0*30
$GPRMC,113744.231,A,5104.300,N,01335.893,E,007.0,283.8,121021,000.0,W*7C
$GPGGA,113745.231,5104.300,N,01335.890,E,1,12,1.0,0.0,M,0.0,M,,*6D
$GPGSA,A,3,01,02,03,04,05,06,07,08,09,10,11,12,1.0,1.0,1.0*30
$GPRMC,113745.231,A,5104.300,N,01335.890,E,006.5,280.5,121021,000.0,W*74
$GPGGA,113746.231,5104.301,N,01335.887,E,1,12,1.0,0.0,M,0.0,M,,*69
$GPGSA,A,3,01,02,03,04,05,06,07,08,09,10,11,12,1.0,1.0,1.0*30
$GPRMC,113746.231,A,5104.301,N,01335.887,E,006.0,279.0,121021,000.0,W*76
$GPGGA,113747.231,5104.301,N,01335.885,E,1,12,1.0,0.0,M,0.0,M,,*6A
$GPGSA,A,3,01,02,03,04,05,06,07,08,09,10,11,12,1.0,1.0,1.0*30
$GPRMC,113747.231,A,5104.301,N,01335.885,E,006.2,288.6,121021,000.0,W*7F
$GPGGA,113748.231,5104.302,N,01335.882,E,1,12,1.0,0.0,M,0.0,M,,*61
$GPGSA,A,3,01,02,03,04,05,06,07,08,09,10,11,12,1.0,1.0,1.0*30
$GPRMC,113748.231,A,5104.302,N,01335.882,E,005.3,280.2,121021,000.0,W*7A
$GPGGA,113749.231,5104.302,N,01335.880,E,1,12,1.0,0.0,M,0.0,M,,*62
$GPGSA,A,3,01,02,03,04,05,06,07,08,09,10,11,12,1.0,1.0,1.0*30
$GPRMC,113749.231,A,5104.302,N,01335.880,E,008.1,274.9,121021,000.0,W*76
$GPGGA,113750.231,5104.303,N,01335.876,E,1,12,1.0,0.0,M,0.0,M,,*62
$GPGSA,A,3,01,02,03,04,05,06,07,08,09,10,11,12,1.0,1.0,1.0*30
$GPRMC,113750.231,A,5104.303,N,01335.876,E,013.6,227.0,121021,000.0,W*74
$GPGGA,113751.231,5104.300,N,01335.873,E,1,12,1.0,0.0,M,0.0,M,,*65
$GPGSA,A,3,01,02,03,04,05,06,07,08,09,10,11,12,1.0,1.0,1.0*30
$GPRMC,113751.231,A,5104.300,N,01335.873,E,009.6,138.1,121021,000.0,W*74
$GPGGA,113752.231,5104.297,N,01335.875,E,1,12,1.0,0.0,M,0.0,M,,*6F
$GPGSA,A,3,01,02,03,04,05,06,07,08,09,10,11,12,1.0,1.0,1.0*30
$GPRMC,113752.231,A,5104.297,N,01335.875,E,015.4,114.9,121021,000.0,W*77
$GPGGA,113753.231,5104.295,N,01335.881,E,1,12,1.0,0.0,M,0.0,M,,*67
$GPGSA,A,3,01,02,03,04,05,06,07,08,09,10,11,12,1.0,1.0,1.0*30
$GPRMC,113753.231,A,5104.295,N,01335.881,E,017.6,107.9,121021,000.0,W*7D
$GPGGA,113754.231,5104.293,N,01335.887,E,1,12,1.0,0.0,M,0.0,M,,*60
$GPGSA,A,3,01,02,03,04,05,06,07,08,09,10,11,12,1.0,1.0,1.0*30
$GPRMC,113754.231,A,5104.293,N,01335.887,E,018.5,104.3,121021,000.0,W*7F
$GPGGA,113755.231,5104.291,N,01335.895,E,1,12,1.0,0.0,M,0.0,M,,*60
$GPGSA,A,3,01,02,03,04,05,06,07,08,09,10,11,12,1.0,1.0,1.0*30
$GPRMC,113755.231,A,5104.291,N,01335.895,E,011.0,103.9,121021,000.0,W*7E
$GPGGA,113756.231,5104.290,N,01335.899,E,1,12,1.0,0.0,M,0.0,M,,*6E
$GPGSA,A,3,01,02,03,04,05,06,07,08,09,10,11,12,1.0,1.0,1.0*30
$GPRMC,113756.231,A,5104.290,N,01335.899,E,006.2,092.1,121021,000.0,W*75
$GPGGA,113757.231,5104.289,N,01335.902,E,1,12,1.0,0.0,M,0.0,M,,*64
$GPGSA,A,3,01,02,03,04,05,06,07,08,09,10,11,12,1.0,1.0,1.0*30
$GPRMC,113757.231,A,5104.289,N,01335.902,E,010.2,113.7,121021,000.0,W*76
$GPGGA,113758.231,5104.288,N,01335.906,E,1,12,1.0,0.0,M,0.0,M,,*6E
$GPGSA,A,3,01,02,03,04,05,06,07,08,09,10,11,12,1.0,1.0,1.0*30
$GPRMC,113758.231,A,5104.288,N,01335.906,E,009.7,102.8,121021,000.0,W*7E
$GPGGA,113759.231,5104.287,N,01335.910,E,1,12,1.0,0.0,M,0.0,M,,*67
$GPGSA,A,3,01,02,03,04,05,06,07,08,09,10,11,12,1.0,1.0,1.0*30
$GPRMC,113759.231,A,5104.287,N,01335.910,E,004.9,098.3,121021,000.0,W*7D
$GPGGA,113800.231,5104.287,N,01335.912,E,1,12,1.0,0.0,M,0.0,M,,*66
$GPGSA,A,3,01,02,03,04,05,06,07,08,09,10,11,12,1.0,1.0,1.0*30
$GPRMC,113800.231,A,5104.287,N,01335.912,E,004.1,096.5,121021,000.0,W*7C
$GPGGA,113801.231,5104.286,N,01335.914,E,1,12,1.0,0.0,M,0.0,M,,*60
$GPGSA,A,3,01,02,03,04,05,06,07,08,09,10,11,12,1.0,1.0,1.0*30
$GPRMC,113801.231,A,5104.286,N,01335.914,E,006.3,096.4,121021,000.0,W*7B
$GPGGA,113802.231,5104.286,N,01335.917,E,1,12,1.0,0.0,M,0.0,M,,*60
$GPGSA,A,3,01,02,03,04,05,06,07,08,09,10,11,12,1.0,1.0,1.0*30
$GPRMC,113802.231,A,5104.286,N,01335.917,E,006.5,100.5,121021,000.0,W*72
$GPGGA,113803.231,5104.286,N,01335.919,E,1,12,1.0,0.0,M,0.0,M,,*6F
$GPGSA,A,3,01,02,03,04,05,06,07,08,09,10,11,12,1.0,1.0,1.0*30
$GPRMC,113803.231,A,5104.286,N,01335.919,E,003.8,109.3,121021,000.0,W*7A
$GPGGA,113804.231,5104.285,N,01335.921,E,1,12,1.0,0.0,M,0.0,M,,*60
$GPGSA,A,3,01,02,03,04,05,06,07,08,09,10,11,12,1.0,1.0,1.0*30
$GPRMC,113804.231,A,5104.285,N,01335.921,E,008.7,112.3,121021,000.0,W*7B
$GPGGA,113805.231,5104.284,N,01335.924,E,1,12,1.0,0.0,M,0.0,M,,*65
$GPGSA,A,3,01,02,03,04,05,06,07,08,09,10,11,12,1.0,1.0,1.0*30
$GPRMC,113805.231,A,5104.284,N,01335.924,E,005.3,112.8,121021,000.0,W*7C
$GPGGA,113806.231,5104.283,N,01335.926,E,1,12,1.0,0.0,M,0.0,M,,*63
$GPGSA,A,3,01,02,03,04,05,06,07,08,09,10,11,12,1.0,1.0,1.0*30
$GPRMC,113806.231,A,5104.283,N,01335.926,E,006.7,126.4,121021,000.0,W*76
$GPGGA,113807.231,5104.282,N,01335.928,E,1,12,1.0,0.0,M,0.0,M,,*6D
$GPGSA,A,3,01,02,03,04,05,06,07,08,09,10,11,12,1.0,1.0,1.0*30
$GPRMC,113807.231,A,5104.282,N,01335.928,E,006.4,136.4,121021,000.0,W*7A
$GPGGA,113808.231,5104.280,N,01335.929,E,1,12,1.0,0.0,M,0.0,M,,*61
$GPGSA,A,3,01,02,03,04,05,06,07,08,09,10,11,12,1.0,1.0,1.0*30
$GPRMC,113808.231,A,5104.280,N,01335.929,E,009.8,240.4,121021,000.0,W*77
$GPGGA,113809.231,5104.278,N,01335.926,E,1,12,1.0,0.0,M,0.0,M,,*68
$GPGSA,A,3,01,02,03,04,05,06,07,08,09,10,11,12,1.0,1.0,1.0*30
$GPRMC,113809.231,A,5104.278,N,01335.926,E,011.9,262.1,121021,000.0,W*73
$GPGGA,113810.231,5104.278,N,01335.921,E,1,12,1.0,0.0,M,0.0,M,,*67
$GPGSA,A,3,01,02,03,04,05,06,07,08,09,10,11,12,1.0,1.0,1.0*30
$GPRMC,113810.231,A,5104.278,N,01335.921,E,014.3,273.7,121021,000.0,W*75
$GPGGA,113811.231,5104.278,N,01335.915,E,1,12,1.0,0.0,M,0.0,M,,*61
$GPGSA,A,3,01,02,03,04,05,06,07,08,09,10,11,12,1.0,1.0,1.0*30
$GPRMC,113811.231,A,5104.278,N,01335.915,E,006.6,266.0,121021,000.0,W*76
$GPGGA,113812.231,5104.278,N,01335.912,E,1,12,1.0,0.0,M,0.0,M,,*65
$GPGSA,A,3,01,02,03,04,05,06,07,08,09,10,11,12,1.0,1.0,1.0*30
$GPRMC,113812.231,A,5104.278,N,01335.912,E,018.7,278.6,121021,000.0,W*75
$GPGGA,113813.231,5104.279,N,01335.904,E,1,12,1.0,0.0,M,0.0,M,,*62
$GPGSA,A,3,01,02,03,04,05,06,07,08,09,10,11,12,1.0,1.0,1.0*30
$GPRMC,113813.231,A,5104.279,N,01335.904,E,015.0,274.4,121021,000.0,W*76
$GPGGA,113814.231,5104.279,N,01335.897,E,1,12,1.0,0.0,M,0.0,M,,*6E
$GPGSA,A,3,01,02,03,04,05,06,07,08,09,10,11,12,1.0,1.0,1.0*30
$GPRMC,113814.231,A,5104.279,N,01335.897,E,012.8,282.9,121021,000.0,W*71
$GPGGA,113815.231,5104.281,N,01335.892,E,1,12,1.0,0.0,M,0.0,M,,*6D
$GPGSA,A,3,01,02,03,04,05,06,07,08,09,10,11,12,1.0,1.0,1.0*30
$GPRMC,113815.231,A,5104.281,N,01335.892,E,033.4,280.6,121021,000.0,W*70
$GPGGA,113816.231,5104.283,N,01335.878,E,1,12,1.0,0.0,M,0.0,M,,*68
$GPGSA,A,3,01,02,03,04,05,06,07,08,09,10,11,12,1.0,1.0,1.0*30
$GPRMC,113816.231,A,5104.283,N,01335.878,E,019.1,290.7,121021,000.0,W*78
$GPGGA,113817.231,5104.286,N,01335.870,E,1,12,1.0,0.0,M,0.0,M,,*64
$GPGSA,A,3,01,02,03,04,05,06,07,08,09,10,11,12,1.0,1.0,1.0*30
$GPRMC,113817.231,A,5104.286,N,01335.870,E,020.3,291.9,121021,000.0,W*73
$GPGGA,113818.231,5104.289,N,01335.863,E,1,12,1.0,0.0,M,0.0,M,,*66
$GPGSA,A,3,01,02,03,04,05,06,07,08,09,10,11,12,1.0,1.0,1.0*30
$GPRMC,113818.231,A,5104.289,N,01335.863,E,011.3,304.6,121021,000.0,W*71
$GPGGA,113819.231,5104.291,N,01335.859,E,1,12,1.0,0.0,M,0.0,M,,*67
$GPGSA,A,3,01,02,03,04,05,06,07,08,09,10,11,12,1.0,1.0,1.0*30
$GPRMC,113819.231,A,5104.291,N,01335.859,E,019.0,003.5,121021,000.0,W*7C
$GPGGA,113820.231,5104.297,N,01335.860,E,1,12,1.0,0.0,M,0.0,M,,*61
$GPGSA,A,3,01,02,03,04,05,06,07,08,09,10,11,12,1.0,1.0,1.0*30
$GPRMC,113820.231,A,5104.297,N,01335.860,E,017.3,033.0,121021,000.0,W*71
$GPGGA,113821.231,5104.301,N,01335.863,E,1,12,1.0,0.0,M,0.0,M,,*6D
$GPGSA,A,3,01,02,03,04,05,06,07,08,09,10,11,12,1.0,1.0,1.0*30
$GPRMC,113821.231,A,5104.301,N,01335.863,E,023.7,061.0,121021,000.0,W*79
$GPGGA,113822.231,5104.305,N,01335.871,E,1,12,1.0,0.0,M,0.0,M,,*69
$GPGSA,A,3,01,02,03,04,05,06,07,08,09,10,11,12,1.0,1.0,1.0*30
$GPRMC,113822.231,A,5104.305,N,01335.871,E,008.0,052.5,121021,000.0,W*76
$GPGGA,113823.231,5104.307,N,01335.873,E,1,12,1.0,0.0,M,0.0,M,,*68
$GPGSA,A,3,01,02,03,04,05,06,07,08,09,10,11,12,1.0,1.0,1.0*30
$GPRMC,113823.231,A,5104.307,N,01335.873,E,009.0,072.5,121021,000.0,W*74
$GPGGA,113824.231,5104.308,N,01335.876,E,1,12,1.0,0.0,M,0.0,M,,*65
$GPGSA,A,3,01,02,03,04,05,06,07,08,09,10,11,12,1.0,1.0,1.0*30
$GPRMC,113824.231,A,5104.308,N,01335.876,E,007.2,074.3,121021,000.0,W*75
$GPGGA,113825.231,5104.309,N,01335.879,E,1,12,1.0,0.0,M,0.0,M,,*6A
$GPGSA,A,3,01,02,03,04,05,06,07,08,09,10,11,12,1.0,1.0,1.0*30
$GPRMC,113825.231,A,5104.309,N,01335.879,E,004.0,093.3,121021,000.0,W*72
$GPGGA,113826.231,5104.309,N,01335.881,E,1,12,1.0,0.0,M,0.0,M,,*6E
$GPGSA,A,3,01,02,03,04,05,06,07,08,09,10,11,12,1.0,1.0,1.0*30
$GPRMC,113826.231,A,5104.309,N,01335.881,E,004.0,093.3,121021,000.0,W*76
