$GPGGA,122505.909,5104.308,N,01335.880,E,1,12,1.0,0.0,M,0.0,M,,*60
$GPGSA,A,3,01,02,03,04,05,06,07,08,09,10,11,12,1.0,1.0,1.0*30
$GPRMC,122505.909,A,5104.308,N,01335.880,E,013.1,092.0,121021,000.0,W*7D
$GPGGA,122506.909,5104.308,N,01335.886,E,1,12,1.0,0.0,M,0.0,M,,*65
$GPGSA,A,3,01,02,03,04,05,06,07,08,09,10,11,12,1.0,1.0,1.0*30
$GPRMC,122506.909,A,5104.308,N,01335.886,E,012.4,090.0,121021,000.0,W*7E
$GPGGA,122507.909,5104.308,N,01335.891,E,1,12,1.0,0.0,M,0.0,M,,*62
$GPGSA,A,3,01,02,03,04,05,06,07,08,09,10,11,12,1.0,1.0,1.0*30
$GPRMC,122507.909,A,5104.308,N,01335.891,E,010.9,090.0,121021,000.0,W*76
$GPGGA,122508.909,5104.308,N,01335.896,E,1,12,1.0,0.0,M,0.0,M,,*6A
$GPGSA,A,3,01,02,03,04,05,06,07,08,09,10,11,12,1.0,1.0,1.0*30
$GPRMC,122508.909,A,5104.308,N,01335.896,E,004.4,090.0,121021,000.0,W*76
$GPGGA,122509.909,5104.308,N,01335.898,E,1,12,1.0,0.0,M,0.0,M,,*65
$GPGSA,A,3,01,02,03,04,05,06,07,08,09,10,11,12,1.0,1.0,1.0*30
$GPRMC,122509.909,A,5104.308,N,01335.898,E,002.9,090.0,121021,000.0,W*72
$GPGGA,122510.909,5104.308,N,01335.899,E,1,12,1.0,0.0,M,0.0,M,,*6C
$GPGSA,A,3,01,02,03,04,05,06,07,08,09,10,11,12,1.0,1.0,1.0*30
$GPRMC,122510.909,A,5104.308,N,01335.899,E,004.4,096.0,121021,000.0,W*76
$GPGGA,122511.909,5104.308,N,01335.901,E,1,12,1.0,0.0,M,0.0,M,,*6D
$GPGSA,A,3,01,02,03,04,05,06,07,08,09,10,11,12,1.0,1.0,1.0*30
$GPRMC,122511.909,A,5104.308,N,01335.901,E,004.4,096.0,121021,000.0,W*77
$GPGGA,122512.909,5104.308,N,01335.903,E,1,12,1.0,0.0,M,0.0,M,,*6C
$GPGSA,A,3,01,02,03,04,05,06,07,08,09,10,11,12,1.0,1.0,1.0*30
$GPRMC,122512.909,A,5104.308,N,01335.903,E,003.6,090.0,121021,000.0,W*75
$GPGGA,122513.909,5104.308,N,01335.905,E,1,12,1.0,0.0,M,0.0,M,,*6B
$GPGSA,A,3,01,02,03,04,05,06,07,08,09,10,11,12,1.0,1.0,1.0*30
$GPRMC,122513.909,A,5104.308,N,01335.905,E,003.9,104.2,121021,000.0,W*73
$GPGGA,122514.909,5104.307,N,01335.906,E,1,12,1.0,0.0,M,0.0,M,,*60
$GPGSA,A,3,01,02,03,04,05,06,07,08,09,10,11,12,1.0,1.0,1.0*30
$GPRMC,122514.909,A,5104.307,N,01335.906,E,004.4,096.0,121021,000.0,W*7A
$GPGGA,122515.909,5104.307,N,01335.908,E,1,12,1.0,0.0,M,0.0,M,,*6F
$GPGSA,A,3,01,02,03,04,05,06,07,08,09,10,11,12,1.0,1.0,1.0*30
$GPRMC,122515.909,A,5104.307,N,01335.908,E,003.3,107.5,121021,000.0,W*79
$GPGGA,122516.909,5104.307,N,01335.910,E,1,12,1.0,0.0,M,0.0,M,,*65
$GPGSA,A,3,01,02,03,04,05,06,07,08,09,10,11,12,1.0,1.0,1.0*30
$GPRMC,122516.909,A,5104.307,N,01335.910,E,002.2,090.0,121021,000.0,W*79
$GPGGA,122517.909,5104.307,N,01335.911,E,1,12,1.0,0.0,M,0.0,M,,*65
$GPGSA,A,3,01,02,03,04,05,06,07,08,09,10,11,12,1.0,1.0,1.0*30
$GPRMC,122517.909,A,5104.307,N,01335.911,E,006.9,101.9,121021,000.0,W*76
$GPGGA,122518.909,5104.306,N,01335.913,E,1,12,1.0,0.0,M,0.0,M,,*69
$GPGSA,A,3,01,02,03,04,05,06,07,08,09,10,11,12,1.0,1.0,1.0*30
$GPRMC,122518.909,A,5104.306,N,01335.913,E,002.2,090.0,121021,000.0,W*75
$GPGGA,122519.909,5104.306,N,01335.914,E,1,12,1.0,0.0,M,0.0,M,,*6F
$GPGSA,A,3,01,02,03,04,05,06,07,08,09,10,11,12,1.0,1.0,1.0*30
$GPRMC,122519.909,A,5104.306,N,01335.914,E,001.6,107.5,121021,000.0,W*7E
$GPGGA,122520.909,5104.306,N,01335.915,E,1,12,1.0,0.0,M,0.0,M,,*64
$GPGSA,A,3,01,02,03,04,05,06,07,08,09,10,11,12,1.0,1.0,1.0*30
$GPRMC,122520.909,A,5104.306,N,01335.915,E,002.6,112.8,121021,000.0,W*7F
$GPGGA,122521.909,5104.305,N,01335.916,E,1,12,1.0,0.0,M,0.0,M,,*65
$GPGSA,A,3,01,02,03,04,05,06,07,08,09,10,11,12,1.0,1.0,1.0*30
$GPRMC,122521.909,A,5104.305,N,01335.916,E,000.7,090.0,121021,000.0,W*7E
$GPGGA,122522.909,5104.305,N,01335.916,E,1,12,1.0,0.0,M,0.0,M,,*66
$GPGSA,A,3,01,02,03,04,05,06,07,08,09,10,11,12,1.0,1.0,1.0*30
$GPRMC,122522.909,A,5104.305,N,01335.916,E,002.9,090.0,121021,000.0,W*71
$GPGGA,122523.909,5104.305,N,01335.918,E,1,12,1.0,0.0,M,0.0,M,,*69
$GPGSA,A,3,01,02,03,04,05,06,07,08,09,10,11,12,1.0,1.0,1.0*30
$GPRMC,122523.909,A,5104.305,N,01335.918,E,003.6,115.3,121021,000.0,W*7F
$GPGGA,122524.909,5104.305,N,01335.919,E,1,12,1.0,0.0,M,0.0,M,,*6F
$GPGSA,A,3,01,02,03,04,05,06,07,08,09,10,11,12,1.0,1.0,1.0*30
$GPRMC,122524.909,A,5104.305,N,01335.919,E,003.6,130.1,121021,000.0,W*7C
$GPGGA,122525.909,5104.304,N,01335.920,E,1,12,1.0,0.0,M,0.0,M,,*65
$GPGSA,A,3,01,02,03,04,05,06,07,08,09,10,11,12,1.0,1.0,1.0*30
$GPRMC,122525.909,A,5104.304,N,01335.920,E,002.3,101.9,121021,000.0,W*78
$GPGGA,122526.909,5104.304,N,01335.921,E,1,12,1.0,0.0,M,0.0,M,,*67
$GPGSA,A,3,01,02,03,04,05,06,07,08,09,10,11,12,1.0,1.0,1.0*30
$GPRMC,122526.909,A,5104.304,N,01335.921,E,003.1,057.8,121021,000.0,W*7A
$GPGGA,122527.909,5104.304,N,01335.922,E,1,12,1.0,0.0,M,0.0,M,,*65
$GPGSA,A,3,01,02,03,04,05,06,07,08,09,10,11,12,1.0,1.0,1.0*30
$GPRMC,122527.909,A,5104.304,N,01335.922,E,005.9,094.5,121021,000.0,W*74
$GPGGA,122528.909,5104.304,N,01335.924,E,1,12,1.0,0.0,M,0.0,M,,*6C
$GPGSA,A,3,01,02,03,04,05,06,07,08,09,10,11,12,1.0,1.0,1.0*30
$GPRMC,122528.909,A,5104.304,N,01335.924,E,002.6,112.8,121021,000.0,W*77
$GPGGA,122529.909,5104.304,N,01335.925,E,1,12,1.0,0.0,M,0.0,M,,*6C
$GPGSA,A,3,01,02,03,04,05,06,07,08,09,10,11,12,1.0,1.0,1.0*30
$GPRMC,122529.909,A,5104.304,N,01335.925,E,004.2,110.7,121021,000.0,W*78
$GPGGA,122530.909,5104.303,N,01335.927,E,1,12,1.0,0.0,M,0.0,M,,*61
$GPGSA,A,3,01,02,03,04,05,06,07,08,09,10,11,12,1.0,1.0,1.0*30
$GPRMC,122530.909,A,5104.303,N,01335.927,E,003.6,090.0,121021,000.0,W*78
$GPGGA,122531.909,5104.303,N,01335.929,E,1,12,1.0,0.0,M,0.0,M,,*6E
$GPGSA,A,3,01,02,03,04,05,06,07,08,09,10,11,12,1.0,1.0,1.0*30
$GPRMC,122531.909,A,5104.303,N,01335.929,E,004.9,107.5,121021,000.0,W*75
$GPGGA,122532.909,5104.303,N,01335.931,E,1,12,1.0,0.0,M,0.0,M,,*64
$GPGSA,A,3,01,02,03,04,05,06,07,08,09,10,11,12,1.0,1.0,1.0*30
$GPRMC,122532.909,A,5104.303,N,01335.931,E,002.2,090.0,121021,000.0,W*78
$GPGGA,122533.909,5104.303,N,01335.932,E,1,12,1.0,0.0,M,0.0,M,,*66
$GPGSA,A,3,01,02,03,04,05,06,07,08,09,10,11,12,1.0,1.0,1.0*30
$GPRMC,122533.909,A,5104.303,N,01335.932,E,000.7,180.0,121021,000.0,W*7D
$GPGGA,122534.909,5104.302,N,01335.932,E,1,12,1.0,0.0,M,0.0,M,,*60
$GPGSA,A,3,01,02,03,04,05,06,07,08,09,10,11,12,1.0,1.0,1.0*30
$GPRMC,122534.909,A,5104.302,N,01335.932,E,006.0,099.0,121021,000.0,W*73
$GPGGA,122535.909,5104.302,N,01335.934,E,1,12,1.0,0.0,M,0.0,M,,*67
$GPGSA,A,3,01,02,03,04,05,06,07,08,09,10,11,12,1.0,1.0,1.0*30
$GPRMC,122535.909,A,5104.302,N,01335.934,E,006.0,000.0,121021,000.0,W*74
$GPGGA,122536.909,5104.302,N,01335.934,E,1,12,1.0,0.0,M,0.0,M,,*64
$GPGSA,A,3,01,02,03,04,05,06,07,08,09,10,11,12,1.0,1.0,1.0*30
$GPRMC,122536.909,A,5104.302,N,01335.934,E,000.0,000.0,121021,000.0,W*71
$GPGGA,122537.909,5104.302,N,01335.934,E,1,12,1.0,0.0,M,0.0,M,,*65
$GPGSA,A,3,01,02,03,04,05,06,07,08,09,10,11,12,1.0,1.0,1.0*30
$GPRMC,122537.909,A,5104.302,N,01335.934,E,000.0,000.0,121021,000.0,W*70
$GPGGA,122538.909,5104.302,N,01335.934,E,1,12,1.0,0.0,M,0.0,M,,*6A
$GPGSA,A,3,01,02,03,04,05,06,07,08,09,10,11,12,1.0,1.0,1.0*30
$GPRMC,122538.909,A,5104.302,N,01335.934,E,009.3,116.8,121021,000.0,W*7B
$GPGGA,122539.909,5104.300,N,01335.937,E,1,12,1.0,0.0,M,0.0,M,,*6A
$GPGSA,A,3,01,02,03,04,05,06,07,08,09,10,11,12,1.0,1.0,1.0*30
$GPRMC,122539.909,A,5104.300,N,01335.937,E,009.3,000.0,121021,000.0,W*75
$GPGGA,122540.909,5104.300,N,01335.937,E,1,12,1.0,0.0,M,0.0,M,,*64
$GPGSA,A,3,01,02,03,04,05,06,07,08,09,10,11,12,1.0,1.0,1.0*30
$GPRMC,122540.909,A,5104.300,N,01335.937,E,003.9,075.8,121021,000.0,W*71
$GPGGA,122541.909,5104.301,N,01335.939,E,1,12,1.0,0.0,M,0.0,M,,*6A
$GPGSA,A,3,01,02,03,04,05,06,07,08,09,10,11,12,1.0,1.0,1.0*30
$GPRMC,122541.909,A,5104.301,N,01335.939,E,003.9,000.0,121021,000.0,W*75
$GPGGA,122542.909,5104.301,N,01335.939,E,1,12,1.0,0.0,M,0.0,M,,*69
$GPGSA,A,3,01,02,03,04,05,06,07,08,09,10,11,12,1.0,1.0,1.0*30
$GPRMC,122542.909,A,5104.301,N,01335.939,E,001.6,107.5,121021,000.0,W*78
$GPGGA,122543.909,5104.301,N,01335.940,E,1,12,1.0,0.0,M,0.0,M,,*66
$GPGSA,A,3,01,02,03,04,05,06,07,08,09,10,11,12,1.0,1.0,1.0*30
$GPRMC,122543.909,A,5104.301,N,01335.940,E,003.3,107.5,121021,000.0,W*70
$GPGGA,122544.909,5104.300,N,01335.941,E,1,12,1.0,0.0,M,0.0,M,,*61
$GPGSA,A,3,01,02,03,04,05,06,07,08,09,10,11,12,1.0,1.0,1.0*30
$GPRMC,122544.909,A,5104.300,N,01335.941,E,003.3,000.0,121021,000.0,W*74
$GPGGA,122545.909,5104.300,N,01335.941,E,1,12,1.0,0.0,M,0.0,M,,*60
$GPGSA,A,3,01,02,03,04,05,06,07,08,09,10,11,12,1.0,1.0,1.0*30
$GPRMC,122545.909,A,5104.300,N,01335.941,E,001.0,057.8,121021,000.0,W*7E
$GPGGA,122546.909,5104.300,N,01335.941,E,1,12,1.0,0.0,M,0.0,M,,*63
$GPGSA,A,3,01,02,03,04,05,06,07,08,09,10,11,12,1.0,1.0,1.0*30
$GPRMC,122546.909,A,5104.300,N,01335.941,E,003.3,072.5,121021,000.0,W*76
$GPGGA,122547.909,5104.301,N,01335.942,E,1,12,1.0,0.0,M,0.0,M,,*60
$GPGSA,A,3,01,02,03,04,05,06,07,08,09,10,11,12,1.0,1.0,1.0*30
$GPRMC,122547.909,A,5104.301,N,01335.942,E,001.0,057.8,121021,000.0,W*7E
$GPGGA,122548.909,5104.301,N,01335.943,E,1,12,1.0,0.0,M,0.0,M,,*6E
$GPGSA,A,3,01,02,03,04,05,06,07,08,09,10,11,12,1.0,1.0,1.0*30
$GPRMC,122548.909,A,5104.301,N,01335.943,E,008.8,106.0,121021,000.0,W*7C
$GPGGA,122549.909,5104.300,N,01335.946,E,1,12,1.0,0.0,M,0.0,M,,*6B
$GPGSA,A,3,01,02,03,04,05,06,07,08,09,10,11,12,1.0,1.0,1.0*30
$GPRMC,122549.909,A,5104.300,N,01335.946,E,002.2,090.0,121021,000.0,W*77
$GPGGA,122550.909,5104.300,N,01335.947,E,1,12,1.0,0.0,M,0.0,M,,*62
$GPGSA,A,3,01,02,03,04,05,06,07,08,09,10,11,12,1.0,1.0,1.0*30
$GPRMC,122550.909,A,5104.300,N,01335.947,E,008.5,110.7,121021,000.0,W*7D
$GPGGA,122551.909,5104.299,N,01335.951,E,1,12,1.0,0.0,M,0.0,M,,*65
$GPGSA,A,3,01,02,03,04,05,06,07,08,09,10,11,12,1.0,1.0,1.0*30
$GPRMC,122551.909,A,5104.299,N,01335.951,E,000.7,090.0,121021,000.0,W*7E
$GPGGA,122552.909,5104.299,N,01335.951,E,1,12,1.0,0.0,M,0.0,M,,*66
$GPGSA,A,3,01,02,03,04,05,06,07,08,09,10,11,12,1.0,1.0,1.0*30
$GPRMC,122552.909,A,5104.299,N,01335.951,E,000.7,000.0,121021,000.0,W*74
$GPGGA,122553.909,5104.299,N,01335.951,E,1,12,1.0,0.0,M,0.0,M,,*67
$GPGSA,A,3,01,02,03,04,05,06,07,08,09,10,11,12,1.0,1.0,1.0*30
$GPRMC,122553.909,A,5104.299,N,01335.951,E,002.9,090.0,121021,000.0,W*70
$GPGGA,122554.909,5104.299,N,01335.952,E,1,12,1.0,0.0,M,0.0,M,,*63
$GPGSA,A,3,01,02,03,04,05,06,07,08,09,10,11,12,1.0,1.0,1.0*30
$GPRMC,122554.909,A,5104.299,N,01335.952,E,001.5,090.0,121021,000.0,W*7B
$GPGGA,122555.909,5104.299,N,01335.953,E,1,12,1.0,0.0,M,0.0,M,,*63
$GPGSA,A,3,01,02,03,04,05,06,07,08,09,10,11,12,1.0,1.0,1.0*30
$GPRMC,122555.909,A,5104.299,N,01335.953,E,002.6,112.8,121021,000.0,W*78
$GPGGA,122556.909,5104.298,N,01335.954,E,1,12,1.0,0.0,M,0.0,M,,*66
$GPGSA,A,3,01,02,03,04,05,06,07,08,09,10,11,12,1.0,1.0,1.0*30
$GPRMC,122556.909,A,5104.298,N,01335.954,E,021.9,099.9,121021,000.0,W*70
$GPGGA,122557.909,5104.297,N,01335.963,E,1,12,1.0,0.0,M,0.0,M,,*6C
$GPGSA,A,3,01,02,03,04,05,06,07,08,09,10,11,12,1.0,1.0,1.0*30
$GPRMC,122557.909,A,5104.297,N,01335.963,E,004.9,107.5,121021,000.0,W*77
$GPGGA,122558.909,5104.296,N,01335.965,E,1,12,1.0,0.0,M,0.0,M,,*64
$GPGSA,A,3,01,02,03,04,05,06,07,08,09,10,11,12,1.0,1.0,1.0*30
$GPRMC,122558.909,A,5104.296,N,01335.965,E,010.9,115.3,121021,000.0,W*7F
$GPGGA,122559.909,5104.294,N,01335.969,E,1,12,1.0,0.0,M,0.0,M,,*6B
$GPGSA,A,3,01,02,03,04,05,06,07,08,09,10,11,12,1.0,1.0,1.0*30
$GPRMC,122559.909,A,5104.294,N,01335.969,E,003.9,104.2,121021,000.0,W*73
$GPGGA,122600.909,5104.294,N,01335.970,E,1,12,1.0,0.0,M,0.0,M,,*6C
$GPGSA,A,3,01,02,03,04,05,06,07,08,09,10,11,12,1.0,1.0,1.0*30
$GPRMC,122600.909,A,5104.294,N,01335.970,E,001.0,122.2,121021,000.0,W*7B
$GPGGA,122601.909,5104.294,N,01335.971,E,1,12,1.0,0.0,M,0.0,M,,*6C
$GPGSA,A,3,01,02,03,04,05,06,07,08,09,10,11,12,1.0,1.0,1.0*30
$GPRMC,122601.909,A,5104.294,N,01335.971,E,006.3,131.5,121021,000.0,W*7A
$GPGGA,122602.909,5104.292,N,01335.972,E,1,12,1.0,0.0,M,0.0,M,,*6A
$GPGSA,A,3,01,02,03,04,05,06,07,08,09,10,11,12,1.0,1.0,1.0*30
$GPRMC,122602.909,A,5104.292,N,01335.972,E,002.6,112.8,121021,000.0,W*71
$GPGGA,122603.909,5104.292,N,01335.973,E,1,12,1.0,0.0,M,0.0,M,,*6A
$GPGSA,A,3,01,02,03,04,05,06,07,08,09,10,11,12,1.0,1.0,1.0*30
$GPRMC,122603.909,A,5104.292,N,01335.973,E,001.6,141.6,121021,000.0,W*7A
$GPGGA,122604.909,5104.291,N,01335.974,E,1,12,1.0,0.0,M,0.0,M,,*69
$GPGSA,A,3,01,02,03,04,05,06,07,08,09,10,11,12,1.0,1.0,1.0*30
$GPRMC,122604.909,A,5104.291,N,01335.974,E,021.7,159.1,121021,000.0,W*74
$GPGGA,122605.909,5104.286,N,01335.976,E,1,12,1.0,0.0,M,0.0,M,,*6C
$GPGSA,A,3,01,02,03,04,05,06,07,08,09,10,11,12,1.0,1.0,1.0*30
$GPRMC,122605.909,A,5104.286,N,01335.976,E,006.2,237.8,121021,000.0,W*73
$GPGGA,122606.909,5104.284,N,01335.974,E,1,12,1.0,0.0,M,0.0,M,,*6F
$GPGSA,A,3,01,02,03,04,05,06,07,08,09,10,11,12,1.0,1.0,1.0*30
$GPRMC,122606.909,A,5104.284,N,01335.974,E,004.7,231.7,121021,000.0,W*7E
$GPGGA,122607.909,5104.283,N,01335.973,E,1,12,1.0,0.0,M,0.0,M,,*6E
$GPGSA,A,3,01,02,03,04,05,06,07,08,09,10,11,12,1.0,1.0,1.0*30
$GPRMC,122607.909,A,5104.283,N,01335.973,E,011.4,242.3,121021,000.0,W*78
$GPGGA,122608.909,5104.281,N,01335.969,E,1,12,1.0,0.0,M,0.0,M,,*68
$GPGSA,A,3,01,02,03,04,05,06,07,08,09,10,11,12,1.0,1.0,1.0*30
$GPRMC,122608.909,A,5104.281,N,01335.969,E,002.1,237.8,121021,000.0,W*70
$GPGGA,122609.909,5104.281,N,01335.968,E,1,12,1.0,0.0,M,0.0,M,,*68
$GPGSA,A,3,01,02,03,04,05,06,07,08,09,10,11,12,1.0,1.0,1.0*30
$GPRMC,122609.909,A,5104.281,N,01335.968,E,003.1,237.8,121021,000.0,W*71
$GPGGA,122610.909,5104.280,N,01335.967,E,1,12,1.0,0.0,M,0.0,M,,*6E
$GPGSA,A,3,01,02,03,04,05,06,07,08,09,10,11,12,1.0,1.0,1.0*30
$GPRMC,122610.909,A,5104.280,N,01335.967,E,012.1,247.9,121021,000.0,W*71
$GPGGA,122611.909,5104.279,N,01335.963,E,1,12,1.0,0.0,M,0.0,M,,*6D
$GPGSA,A,3,01,02,03,04,05,06,07,08,09,10,11,12,1.0,1.0,1.0*30
$GPRMC,122611.909,A,5104.279,N,01335.963,E,001.0,237.8,121021,000.0,W*77
$GPGGA,122612.909,5104.278,N,01335.962,E,1,12,1.0,0.0,M,0.0,M,,*6E
$GPGSA,A,3,01,02,03,04,05,06,07,08,09,10,11,12,1.0,1.0,1.0*30
$GPRMC,122612.909,A,5104.278,N,01335.962,E,012.0,261.0,121021,000.0,W*7D
$GPGGA,122613.909,5104.278,N,01335.957,E,1,12,1.0,0.0,M,0.0,M,,*69
$GPGSA,A,3,01,02,03,04,05,06,07,08,09,10,11,12,1.0,1.0,1.0*30
$GPRMC,122613.909,A,5104.278,N,01335.957,E,012.0,000.0,121021,000.0,W*7F
$GPGGA,122614.909,5104.278,N,01335.957,E,1,12,1.0,0.0,M,0.0,M,,*6E
$GPGSA,A,3,01,02,03,04,05,06,07,08,09,10,11,12,1.0,1.0,1.0*30
$GPRMC,122614.909,A,5104.278,N,01335.957,E,001.5,270.0,121021,000.0,W*7A
$GPGGA,122615.909,5104.278,N,01335.957,E,1,12,1.0,0.0,M,0.0,M,,*6F
$GPGSA,A,3,01,02,03,04,05,06,07,08,09,10,11,12,1.0,1.0,1.0*30
$GPRMC,122615.909,A,5104.278,N,01335.957,E,003.6,244.7,121021,000.0,W*7A
$GPGGA,122616.909,5104.277,N,01335.955,E,1,12,1.0,0.0,M,0.0,M,,*61
$GPGSA,A,3,01,02,03,04,05,06,07,08,09,10,11,12,1.0,1.0,1.0*30
$GPRMC,122616.909,A,5104.277,N,01335.955,E,001.0,237.8,121021,000.0,W*7B
$GPGGA,122617.909,5104.277,N,01335.955,E,1,12,1.0,0.0,M,0.0,M,,*60
$GPGSA,A,3,01,02,03,04,05,06,07,08,09,10,11,12,1.0,1.0,1.0*30
$GPRMC,122617.909,A,5104.277,N,01335.955,E,005.2,237.8,121021,000.0,W*7C
$GPGGA,122618.909,5104.276,N,01335.953,E,1,12,1.0,0.0,M,0.0,M,,*68
$GPGSA,A,3,01,02,03,04,05,06,07,08,09,10,11,12,1.0,1.0,1.0*30
$GPRMC,122618.909,A,5104.276,N,01335.953,E,004.1,237.8,121021,000.0,W*76
$GPGGA,122619.909,5104.275,N,01335.952,E,1,12,1.0,0.0,M,0.0,M,,*6B
$GPGSA,A,3,01,02,03,04,05,06,07,08,09,10,11,12,1.0,1.0,1.0*30
$GPRMC,122619.909,A,5104.275,N,01335.952,E,006.9,248.5,121021,000.0,W*7A
$GPGGA,122620.909,5104.274,N,01335.950,E,1,12,1.0,0.0,M,0.0,M,,*62
$GPGSA,A,3,01,02,03,04,05,06,07,08,09,10,11,12,1.0,1.0,1.0*30
$GPRMC,122620.909,A,5104.274,N,01335.950,E,001.5,270.0,121021,000.0,W*76
$GPGGA,122621.909,5104.274,N,01335.949,E,1,12,1.0,0.0,M,0.0,M,,*6B
$GPGSA,A,3,01,02,03,04,05,06,07,08,09,10,11,12,1.0,1.0,1.0*30
$GPRMC,122621.909,A,5104.274,N,01335.949,E,002.2,180.0,121021,000.0,W*77
$GPGGA,122622.909,5104.273,N,01335.949,E,1,12,1.0,0.0,M,0.0,M,,*6F
$GPGSA,A,3,01,02,03,04,05,06,07,08,09,10,11,12,1.0,1.0,1.0*30
$GPRMC,122622.909,A,5104.273,N,01335.949,E,000.7,270.0,121021,000.0,W*78
$GPGGA,122623.909,5104.273,N,01335.949,E,1,12,1.0,0.0,M,0.0,M,,*6E
$GPGSA,A,3,01,02,03,04,05,06,07,08,09,10,11,12,1.0,1.0,1.0*30
$GPRMC,122623.909,A,5104.273,N,01335.949,E,002.6,226.6,121021,000.0,W*7F
$GPGGA,122624.909,5104.273,N,01335.948,E,1,12,1.0,0.0,M,0.0,M,,*68
$GPGSA,A,3,01,02,03,04,05,06,07,08,09,10,11,12,1.0,1.0,1.0*30
$GPRMC,122624.909,A,5104.273,N,01335.948,E,013.4,241.6,121021,000.0,W*7A
$GPGGA,122625.909,5104.270,N,01335.943,E,1,12,1.0,0.0,M,0.0,M,,*61
$GPGSA,A,3,01,02,03,04,05,06,07,08,09,10,11,12,1.0,1.0,1.0*30
$GPRMC,122625.909,A,5104.270,N,01335.943,E,013.4,000.0,121021,000.0,W*72
$GPGGA,122626.909,5104.270,N,01335.943,E,1,12,1.0,0.0,M,0.0,M,,*62
$GPGSA,A,3,01,02,03,04,05,06,07,08,09,10,11,12,1.0,1.0,1.0*30
$GPRMC,122626.909,A,5104.270,N,01335.943,E,004.4,270.0,121021,000.0,W*72
$GPGGA,122627.909,5104.270,N,01335.942,E,1,12,1.0,0.0,M,0.0,M,,*62
$GPGSA,A,3,01,02,03,04,05,06,07,08,09,10,11,12,1.0,1.0,1.0*30
$GPRMC,122627.909,A,5104.270,N,01335.942,E,001.5,270.0,121021,000.0,W*76
$GPGGA,122628.909,5104.270,N,01335.941,E,1,12,1.0,0.0,M,0.0,M,,*6E
$GPGSA,A,3,01,02,03,04,05,06,07,08,09,10,11,12,1.0,1.0,1.0*30
$GPRMC,122628.909,A,5104.270,N,01335.941,E,003.3,252.5,121021,000.0,W*7B
$GPGGA,122629.909,5104.270,N,01335.940,E,1,12,1.0,0.0,M,0.0,M,,*6E
$GPGSA,A,3,01,02,03,04,05,06,07,08,09,10,11,12,1.0,1.0,1.0*30
$GPRMC,122629.909,A,5104.270,N,01335.940,E,001.5,270.0,121021,000.0,W*7A
$GPGGA,122630.909,5104.270,N,01335.939,E,1,12,1.0,0.0,M,0.0,M,,*68
$GPGSA,A,3,01,02,03,04,05,06,07,08,09,10,11,12,1.0,1.0,1.0*30
$GPRMC,122630.909,A,5104.270,N,01335.939,E,000.7,270.0,121021,000.0,W*7F
$GPGGA,122631.909,5104.270,N,01335.939,E,1,12,1.0,0.0,M,0.0,M,,*69
$GPGSA,A,3,01,02,03,04,05,06,07,08,09,10,11,12,1.0,1.0,1.0*30
$GPRMC,122631.909,A,5104.270,N,01335.939,E,003.0,261.0,121021,000.0,W*7A
$GPGGA,122632.909,5104.270,N,01335.937,E,1,12,1.0,0.0,M,0.0,M,,*64
$GPGSA,A,3,01,02,03,04,05,06,07,08,09,10,11,12,1.0,1.0,1.0*30
$GPRMC,122632.909,A,5104.270,N,01335.937,E,001.6,252.5,121021,000.0,W*76
$GPGGA,122633.909,5104.269,N,01335.937,E,1,12,1.0,0.0,M,0.0,M,,*6D
$GPGSA,A,3,01,02,03,04,05,06,07,08,09,10,11,12,1.0,1.0,1.0*30
$GPRMC,122633.909,A,5104.269,N,01335.937,E,001.6,000.0,121021,000.0,W*7F
$GPGGA,122634.909,5104.269,N,01335.937,E,1,12,1.0,0.0,M,0.0,M,,*6A
$GPGSA,A,3,01,02,03,04,05,06,07,08,09,10,11,12,1.0,1.0,1.0*30
$GPRMC,122634.909,A,5104.269,N,01335.937,E,000.0,000.0,121021,000.0,W*7F
$GPGGA,122635.909,5104.269,N,01335.937,E,1,12,1.0,0.0,M,0.0,M,,*6B
$GPGSA,A,3,01,02,03,04,05,06,07,08,09,10,11,12,1.0,1.0,1.0*30
$GPRMC,122635.909,A,5104.269,N,01335.937,E,002.3,258.1,121021,000.0,W*71
$GPGGA,122636.909,5104.269,N,01335.936,E,1,12,1.0,0.0,M,0.0,M,,*69
$GPGSA,A,3,01,02,03,04,05,06,07,08,09,10,11,12,1.0,1.0,1.0*30
$GPRMC,122636.909,A,5104.269,N,01335.936,E,007.3,270.0,121021,000.0,W*7D
$GPGGA,122637.909,5104.269,N,01335.932,E,1,12,1.0,0.0,M,0.0,M,,*6C
$GPGSA,A,3,01,02,03,04,05,06,07,08,09,10,11,12,1.0,1.0,1.0*30
$GPRMC,122637.909,A,5104.269,N,01335.932,E,003.7,262.8,121021,000.0,W*73
$GPGGA,122638.909,5104.269,N,01335.931,E,1,12,1.0,0.0,M,0.0,M,,*60
$GPGSA,A,3,01,02,03,04,05,06,07,08,09,10,11,12,1.0,1.0,1.0*30
$GPRMC,122638.909,A,5104.269,N,01335.931,E,002.2,270.0,121021,000.0,W*70
$GPGGA,122639.909,5104.269,N,01335.930,E,1,12,1.0,0.0,M,0.0,M,,*60
$GPGSA,A,3,01,02,03,04,05,06,07,08,09,10,11,12,1.0,1.0,1.0*30
$GPRMC,122639.909,A,5104.269,N,01335.930,E,001.5,270.0,121021,000.0,W*74
$GPGGA,122640.909,5104.269,N,01335.929,E,1,12,1.0,0.0,M,0.0,M,,*66
$GPGSA,A,3,01,02,03,04,05,06,07,08,09,10,11,12,1.0,1.0,1.0*30
$GPRMC,122640.909,A,5104.269,N,01335.929,E,004.4,270.0,121021,000.0,W*76
$GPGGA,122641.909,5104.269,N,01335.927,E,1,12,1.0,0.0,M,0.0,M,,*69
$GPGSA,A,3,01,02,03,04,05,06,07,08,09,10,11,12,1.0,1.0,1.0*30
$GPRMC,122641.909,A,5104.269,N,01335.927,E,000.7,270.0,121021,000.0,W*7E
$GPGGA,122642.909,5104.269,N,01335.927,E,1,12,1.0,0.0,M,0.0,M,,*6A
$GPGSA,A,3,01,02,03,04,05,06,07,08,09,10,11,12,1.0,1.0,1.0*30
$GPRMC,122642.909,A,5104.269,N,01335.927,E,001.6,287.5,121021,000.0,W*70
$GPGGA,122643.909,5104.269,N,01335.926,E,1,12,1.0,0.0,M,0.0,M,,*6A
$GPGSA,A,3,01,02,03,04,05,06,07,08,09,10,11,12,1.0,1.0,1.0*30
$GPRMC,122643.909,A,5104.269,N,01335.926,E,000.7,270.0,121021,000.0,W*7D
$GPGGA,122644.909,5104.269,N,01335.926,E,1,12,1.0,0.0,M,0.0,M,,*6D
$GPGSA,A,3,01,02,03,04,05,06,07,08,09,10,11,12,1.0,1.0,1.0*30
$GPRMC,122644.909,A,5104.269,N,01335.926,E,002.6,292.8,121021,000.0,W*7D
$GPGGA,122645.909,5104.270,N,01335.925,E,1,12,1.0,0.0,M,0.0,M,,*67
$GPGSA,A,3,01,02,03,04,05,06,07,08,09,10,11,12,1.0,1.0,1.0*30
$GPRMC,122645.909,A,5104.270,N,01335.925,E,002.6,000.0,121021,000.0,W*76
$GPGGA,122646.909,5104.270,N,01335.925,E,1,12,1.0,0.0,M,0.0,M,,*64
$GPGSA,A,3,01,02,03,04,05,06,07,08,09,10,11,12,1.0,1.0,1.0*30
$GPRMC,122646.909,A,5104.270,N,01335.925,E,001.6,321.6,121021,000.0,W*70
$GPGGA,122647.909,5104.270,N,01335.925,E,1,12,1.0,0.0,M,0.0,M,,*65
$GPGSA,A,3,01,02,03,04,05,06,07,08,09,10,11,12,1.0,1.0,1.0*30
$GPRMC,122647.909,A,5104.270,N,01335.925,E,001.6,287.5,121021,000.0,W*7F
$GPGGA,122648.909,5104.270,N,01335.924,E,1,12,1.0,0.0,M,0.0,M,,*6B
$GPGSA,A,3,01,02,03,04,05,06,07,08,09,10,11,12,1.0,1.0,1.0*30
$GPRMC,122648.909,A,5104.270,N,01335.924,E,001.0,302.2,121021,000.0,W*7C
$GPGGA,122649.909,5104.270,N,01335.924,E,1,12,1.0,0.0,M,0.0,M,,*6A
$GPGSA,A,3,01,02,03,04,05,06,07,08,09,10,11,12,1.0,1.0,1.0*30
$GPRMC,122649.909,A,5104.270,N,01335.924,E,001.0,000.0,121021,000.0,W*7E
$GPGGA,122650.909,5104.270,N,01335.924,E,1,12,1.0,0.0,M,0.0,M,,*62
$GPGSA,A,3,01,02,03,04,05,06,07,08,09,10,11,12,1.0,1.0,1.0*30
$GPRMC,122650.909,A,5104.270,N,01335.924,E,000.0,000.0,121021,000.0,W*77
$GPGGA,122651.909,5104.270,N,01335.924,E,1,12,1.0,0.0,M,0.0,M,,*63
$GPGSA,A,3,01,02,03,04,05,06,07,08,09,10,11,12,1.0,1.0,1.0*30
$GPRMC,122651.909,A,5104.270,N,01335.924,E,001.6,287.5,121021,000.0,W*79
$GPGGA,122652.909,5104.271,N,01335.923,E,1,12,1.0,0.0,M,0.0,M,,*66
$GPGSA,A,3,01,02,03,04,05,06,07,08,09,10,11,12,1.0,1.0,1.0*30
$GPRMC,122652.909,A,5104.271,N,01335.923,E,002.2,270.0,121021,000.0,W*76
$GPGGA,122653.909,5104.271,N,01335.922,E,1,12,1.0,0.0,M,0.0,M,,*66
$GPGSA,A,3,01,02,03,04,05,06,07,08,09,10,11,12,1.0,1.0,1.0*30
$GPRMC,122653.909,A,5104.271,N,01335.922,E,002.6,292.8,121021,000.0,W*76
$GPGGA,122654.909,5104.271,N,01335.921,E,1,12,1.0,0.0,M,0.0,M,,*62
$GPGSA,A,3,01,02,03,04,05,06,07,08,09,10,11,12,1.0,1.0,1.0*30
$GPRMC,122654.909,A,5104.271,N,01335.921,E,002.6,000.0,121021,000.0,W*73
$GPGGA,122655.909,5104.271,N,01335.921,E,1,12,1.0,0.0,M,0.0,M,,*63
$GPGSA,A,3,01,02,03,04,05,06,07,08,09,10,11,12,1.0,1.0,1.0*30
$GPRMC,122655.909,A,5104.271,N,01335.921,E,002.3,281.9,121021,000.0,W*75
$GPGGA,122656.909,5104.271,N,01335.920,E,1,12,1.0,0.0,M,0.0,M,,*61
$GPGSA,A,3,01,02,03,04,05,06,07,08,09,10,11,12,1.0,1.0,1.0*30
$GPRMC,122656.909,A,5104.271,N,01335.920,E,000.7,270.0,121021,000.0,W*76
$GPGGA,122657.909,5104.271,N,01335.920,E,1,12,1.0,0.0,M,0.0,M,,*60
$GPGSA,A,3,01,02,03,04,05,06,07,08,09,10,11,12,1.0,1.0,1.0*30
$GPRMC,122657.909,A,5104.271,N,01335.920,E,001.5,270.0,121021,000.0,W*74
$GPGGA,122658.909,5104.271,N,01335.919,E,1,12,1.0,0.0,M,0.0,M,,*65
$GPGSA,A,3,01,02,03,04,05,06,07,08,09,10,11,12,1.0,1.0,1.0*30
$GPRMC,122658.909,A,5104.271,N,01335.919,E,001.5,000.0,121021,000.0,W*74
$GPGGA,122659.909,5104.271,N,01335.919,E,1,12,1.0,0.0,M,0.0,M,,*64
$GPGSA,A,3,01,02,03,04,05,06,07,08,09,10,11,12,1.0,1.0,1.0*30
$GPRMC,122659.909,A,5104.271,N,01335.919,E,000.0,000.0,121021,000.0,W*71
$GPGGA,122700.909,5104.271,N,01335.919,E,1,12,1.0,0.0,M,0.0,M,,*69
$GPGSA,A,3,01,02,03,04,05,06,07,08,09,10,11,12,1.0,1.0,1.0*30
$GPRMC,122700.909,A,5104.271,N,01335.919,E,001.0,302.2,121021,000.0,W*7E
$GPGGA,122701.909,5104.271,N,01335.919,E,1,12,1.0,0.0,M,0.0,M,,*68
$GPGSA,A,3,01,02,03,04,05,06,07,08,09,10,11,12,1.0,1.0,1.0*30
$GPRMC,122701.909,A,5104.271,N,01335.919,E,000.7,270.0,121021,000.0,W*7F
$GPGGA,122702.909,5104.271,N,01335.919,E,1,12,1.0,0.0,M,0.0,M,,*6B
$GPGSA,A,3,01,02,03,04,05,06,07,08,09,10,11,12,1.0,1.0,1.0*30
$GPRMC,122702.909,A,5104.271,N,01335.919,E,001.6,321.6,121021,000.0,W*7F
$GPGGA,122703.909,5104.272,N,01335.918,E,1,12,1.0,0.0,M,0.0,M,,*68
$GPGSA,A,3,01,02,03,04,05,06,07,08,09,10,11,12,1.0,1.0,1.0*30
$GPRMC,122703.909,A,5104.272,N,01335.918,E,003.1,302.2,121021,000.0,W*7C
$GPGGA,122704.909,5104.272,N,01335.917,E,1,12,1.0,0.0,M,0.0,M,,*60
$GPGSA,A,3,01,02,03,04,05,06,07,08,09,10,11,12,1.0,1.0,1.0*30
$GPRMC,122704.909,A,5104.272,N,01335.917,E,001.6,287.5,121021,000.0,W*7A
$GPGGA,122705.909,5104.273,N,01335.917,E,1,12,1.0,0.0,M,0.0,M,,*60
$GPGSA,A,3,01,02,03,04,05,06,07,08,09,10,11,12,1.0,1.0,1.0*30
$GPRMC,122705.909,A,5104.273,N,01335.917,E,001.5,000.0,121021,000.0,W*71
$GPGGA,122706.909,5104.273,N,01335.917,E,1,12,1.0,0.0,M,0.0,M,,*63
$GPGSA,A,3,01,02,03,04,05,06,07,08,09,10,11,12,1.0,1.0,1.0*30
$GPRMC,122706.909,A,5104.273,N,01335.917,E,002.6,292.8,121021,000.0,W*73
$GPGGA,122707.909,5104.273,N,01335.916,E,1,12,1.0,0.0,M,0.0,M,,*63
$GPGSA,A,3,01,02,03,04,05,06,07,08,09,10,11,12,1.0,1.0,1.0*30
$GPRMC,122707.909,A,5104.273,N,01335.916,E,001.6,321.6,121021,000.0,W*77
$GPGGA,122708.909,5104.274,N,01335.915,E,1,12,1.0,0.0,M,0.0,M,,*68
$GPGSA,A,3,01,02,03,04,05,06,07,08,09,10,11,12,1.0,1.0,1.0*30
$GPRMC,122708.909,A,5104.274,N,01335.915,E,006.3,294.3,121021,000.0,W*74
$GPGGA,122709.909,5104.275,N,01335.913,E,1,12,1.0,0.0,M,0.0,M,,*6E
$GPGSA,A,3,01,02,03,04,05,06,07,08,09,10,11,12,1.0,1.0,1.0*30
$GPRMC,122709.909,A,5104.275,N,01335.913,E,006.3,000.0,121021,000.0,W*7E
$GPGGA,122710.909,5104.275,N,01335.913,E,1,12,1.0,0.0,M,0.0,M,,*66
$GPGSA,A,3,01,02,03,04,05,06,07,08,09,10,11,12,1.0,1.0,1.0*30
$GPRMC,122710.909,A,5104.275,N,01335.913,E,014.7,287.5,121021,000.0,W*79
$GPGGA,122711.909,5104.277,N,01335.907,E,1,12,1.0,0.0,M,0.0,M,,*60
$GPGSA,A,3,01,02,03,04,05,06,07,08,09,10,11,12,1.0,1.0,1.0*30
$GPRMC,122711.909,A,5104.277,N,01335.907,E,002.1,302.2,121021,000.0,W*75
$GPGGA,122712.909,5104.277,N,01335.907,E,1,12,1.0,0.0,M,0.0,M,,*63
$GPGSA,A,3,01,02,03,04,05,06,07,08,09,10,11,12,1.0,1.0,1.0*30
$GPRMC,122712.909,A,5104.277,N,01335.907,E,002.1,000.0,121021,000.0,W*75
$GPGGA,122713.909,5104.277,N,01335.907,E,1,12,1.0,0.0,M,0.0,M,,*62
$GPGSA,A,3,01,02,03,04,05,06,07,08,09,10,11,12,1.0,1.0,1.0*30
$GPRMC,122713.909,A,5104.277,N,01335.907,E,008.5,282.9,121021,000.0,W*7B
$GPGGA,122714.909,5104.278,N,01335.903,E,1,12,1.0,0.0,M,0.0,M,,*6E
$GPGSA,A,3,01,02,03,04,05,06,07,08,09,10,11,12,1.0,1.0,1.0*30
$GPRMC,122714.909,A,5104.278,N,01335.903,E,008.5,000.0,121021,000.0,W*76
$GPGGA,122715.909,5104.278,N,01335.903,E,1,12,1.0,0.0,M,0.0,M,,*6F
$GPGSA,A,3,01,02,03,04,05,06,07,08,09,10,11,12,1.0,1.0,1.0*30
$GPRMC,122715.909,A,5104.278,N,01335.903,E,009.2,281.9,121021,000.0,W*73
$GPGGA,122716.909,5104.279,N,01335.899,E,1,12,1.0,0.0,M,0.0,M,,*6F
$GPGSA,A,3,01,02,03,04,05,06,07,08,09,10,11,12,1.0,1.0,1.0*30
$GPRMC,122716.909,A,5104.279,N,01335.899,E,009.2,000.0,121021,000.0,W*71
$GPGGA,122717.909,5104.279,N,01335.899,E,1,12,1.0,0.0,M,0.0,M,,*6E
$GPGSA,A,3,01,02,03,04,05,06,07,08,09,10,11,12,1.0,1.0,1.0*30
$GPRMC,122717.909,A,5104.279,N,01335.899,E,004.2,290.7,121021,000.0,W*71
$GPGGA,122718.909,5104.279,N,01335.898,E,1,12,1.0,0.0,M,0.0,M,,*60
$GPGSA,A,3,01,02,03,04,05,06,07,08,09,10,11,12,1.0,1.0,1.0*30
$GPRMC,122718.909,A,5104.279,N,01335.898,E,004.2,000.0,121021,000.0,W*73
$GPGGA,122719.909,5104.279,N,01335.898,E,1,12,1.0,0.0,M,0.0,M,,*61
$GPGSA,A,3,01,02,03,04,05,06,07,08,09,10,11,12,1.0,1.0,1.0*30
$GPRMC,122719.909,A,5104.279,N,01335.898,E,003.9,327.6,121021,000.0,W*7E
$GPGGA,122720.909,5104.280,N,01335.897,E,1,12,1.0,0.0,M,0.0,M,,*62
$GPGSA,A,3,01,02,03,04,05,06,07,08,09,10,11,12,1.0,1.0,1.0*30
$GPRMC,122720.909,A,5104.280,N,01335.897,E,003.9,000.0,121021,000.0,W*7D
$GPGGA,122721.909,5104.280,N,01335.897,E,1,12,1.0,0.0,M,0.0,M,,*63
$GPGSA,A,3,01,02,03,04,05,06,07,08,09,10,11,12,1.0,1.0,1.0*30
$GPRMC,122721.909,A,5104.280,N,01335.897,E,016.6,318.9,121021,000.0,W*74
$GPGGA,122722.909,5104.284,N,01335.894,E,1,12,1.0,0.0,M,0.0,M,,*67
$GPGSA,A,3,01,02,03,04,05,06,07,08,09,10,11,12,1.0,1.0,1.0*30
$GPRMC,122722.909,A,5104.284,N,01335.894,E,001.5,269.7,121021,000.0,W*7C
$GPGGA,122723.909,5104.284,N,01335.893,E,1,12,1.0,0.0,M,0.0,M,,*61
$GPGSA,A,3,01,02,03,04,05,06,07,08,09,10,11,12,1.0,1.0,1.0*30
$GPRMC,122723.909,A,5104.284,N,01335.893,E,001.5,000.0,121021,000.0,W*70
$GPGGA,122724.909,5104.284,N,01335.893,E,1,12,1.0,0.0,M,0.0,M,,*66
$GPGSA,A,3,01,02,03,04,05,06,07,08,09,10,11,12,1.0,1.0,1.0*30
$GPRMC,122724.909,A,5104.284,N,01335.893,E,006.3,294.3,121021,000.0,W*7A
$GPGGA,122725.909,5104.285,N,01335.891,E,1,12,1.0,0.0,M,0.0,M,,*64
$GPGSA,A,3,01,02,03,04,05,06,07,08,09,10,11,12,1.0,1.0,1.0*30
$GPRMC,122725.909,A,5104.285,N,01335.891,E,002.3,332.2,121021,000.0,W*70
$GPGGA,122726.909,5104.286,N,01335.890,E,1,12,1.0,0.0,M,0.0,M,,*65
$GPGSA,A,3,01,02,03,04,05,06,07,08,09,10,11,12,1.0,1.0,1.0*30
$GPRMC,122726.909,A,5104.286,N,01335.890,E,002.3,000.0,121021,000.0,W*71
$GPGGA,122727.909,5104.286,N,01335.890,E,1,12,1.0,0.0,M,0.0,M,,*64
$GPGSA,A,3,01,02,03,04,05,06,07,08,09,10,11,12,1.0,1.0,1.0*30
$GPRMC,122727.909,A,5104.286,N,01335.890,E,000.7,000.0,121021,000.0,W*76
$GPGGA,122728.909,5104.286,N,01335.890,E,1,12,1.0,0.0,M,0.0,M,,*6B
$GPGSA,A,3,01,02,03,04,05,06,07,08,09,10,11,12,1.0,1.0,1.0*30
$GPRMC,122728.909,A,5104.286,N,01335.890,E,001.6,321.6,121021,000.0,W*7F
$GPGGA,122729.909,5104.287,N,01335.890,E,1,12,1.0,0.0,M,0.0,M,,*6B
$GPGSA,A,3,01,02,03,04,05,06,07,08,09,10,11,12,1.0,1.0,1.0*30
$GPRMC,122729.909,A,5104.287,N,01335.890,E,001.6,321.6,121021,000.0,W*7F
$GPGGA,122730.909,5104.287,N,01335.890,E,1,12,1.0,0.0,M,0.0,M,,*63
$GPGSA,A,3,01,02,03,04,05,06,07,08,09,10,11,12,1.0,1.0,1.0*30
$GPRMC,122730.909,A,5104.287,N,01335.890,E,002.6,313.4,121021,000.0,W*77
$GPGGA,122731.909,5104.288,N,01335.889,E,1,12,1.0,0.0,M,0.0,M,,*65
$GPGSA,A,3,01,02,03,04,05,06,07,08,09,10,11,12,1.0,1.0,1.0*30
$GPRMC,122731.909,A,5104.288,N,01335.889,E,001.6,321.6,121021,000.0,W*71
$GPGGA,122732.909,5104.288,N,01335.889,E,1,12,1.0,0.0,M,0.0,M,,*66
$GPGSA,A,3,01,02,03,04,05,06,07,08,09,10,11,12,1.0,1.0,1.0*30
$GPRMC,122732.909,A,5104.288,N,01335.889,E,002.3,332.2,121021,000.0,W*72
$GPGGA,122733.909,5104.289,N,01335.888,E,1,12,1.0,0.0,M,0.0,M,,*67
$GPGSA,A,3,01,02,03,04,05,06,07,08,09,10,11,12,1.0,1.0,1.0*30
$GPRMC,122733.909,A,5104.289,N,01335.888,E,002.3,000.0,121021,000.0,W*73
$GPGGA,122734.909,5104.289,N,01335.888,E,1,12,1.0,0.0,M,0.0,M,,*60
$GPGSA,A,3,01,02,03,04,05,06,07,08,09,10,11,12,1.0,1.0,1.0*30
$GPRMC,122734.909,A,5104.289,N,01335.888,E,001.0,302.2,121021,000.0,W*77
$GPGGA,122735.909,5104.289,N,01335.888,E,1,12,1.0,0.0,M,0.0,M,,*61
$GPGSA,A,3,01,02,03,04,05,06,07,08,09,10,11,12,1.0,1.0,1.0*30
$GPRMC,122735.909,A,5104.289,N,01335.888,E,003.3,321.6,121021,000.0,W*72
$GPGGA,122736.909,5104.290,N,01335.887,E,1,12,1.0,0.0,M,0.0,M,,*65
$GPGSA,A,3,01,02,03,04,05,06,07,08,09,10,11,12,1.0,1.0,1.0*30
$GPRMC,122736.909,A,5104.290,N,01335.887,E,005.5,325.8,121021,000.0,W*7C
$GPGGA,122737.909,5104.291,N,01335.886,E,1,12,1.0,0.0,M,0.0,M,,*64
$GPGSA,A,3,01,02,03,04,05,06,07,08,09,10,11,12,1.0,1.0,1.0*30
$GPRMC,122737.909,A,5104.291,N,01335.886,E,002.2,000.0,121021,000.0,W*71
$GPGGA,122738.909,5104.292,N,01335.886,E,1,12,1.0,0.0,M,0.0,M,,*68
$GPGSA,A,3,01,02,03,04,05,06,07,08,09,10,11,12,1.0,1.0,1.0*30
$GPRMC,122738.909,A,5104.292,N,01335.886,E,002.3,332.2,121021,000.0,W*7C
$GPGGA,122739.909,5104.292,N,01335.886,E,1,12,1.0,0.0,M,0.0,M,,*69
$GPGSA,A,3,01,02,03,04,05,06,07,08,09,10,11,12,1.0,1.0,1.0*30
$GPRMC,122739.909,A,5104.292,N,01335.886,E,000.7,000.0,121021,000.0,W*7B
$GPGGA,122740.909,5104.292,N,01335.886,E,1,12,1.0,0.0,M,0.0,M,,*67
$GPGSA,A,3,01,02,03,04,05,06,07,08,09,10,11,12,1.0,1.0,1.0*30
$GPRMC,122740.909,A,5104.292,N,01335.886,E,000.7,000.0,121021,000.0,W*75
$GPGGA,122741.909,5104.292,N,01335.886,E,1,12,1.0,0.0,M,0.0,M,,*66
$GPGSA,A,3,01,02,03,04,05,06,07,08,09,10,11,12,1.0,1.0,1.0*30
$GPRMC,122741.909,A,5104.292,N,01335.886,E,006.2,329.3,121021,000.0,W*7C
$GPGGA,122742.909,5104.294,N,01335.885,E,1,12,1.0,0.0,M,0.0,M,,*60
$GPGSA,A,3,01,02,03,04,05,06,07,08,09,10,11,12,1.0,1.0,1.0*30
$GPRMC,122742.909,A,5104.294,N,01335.885,E,002.9,000.0,121021,000.0,W*7E
$GPGGA,122743.909,5104.295,N,01335.885,E,1,12,1.0,0.0,M,0.0,M,,*60
$GPGSA,A,3,01,02,03,04,05,06,07,08,09,10,11,12,1.0,1.0,1.0*30
$GPRMC,122743.909,A,5104.295,N,01335.885,E,003.9,327.6,121021,000.0,W*7F
$GPGGA,122744.909,5104.296,N,01335.885,E,1,12,1.0,0.0,M,0.0,M,,*64
$GPGSA,A,3,01,02,03,04,05,06,07,08,09,10,11,12,1.0,1.0,1.0*30
$GPRMC,122744.909,A,5104.296,N,01335.885,E,002.2,000.0,121021,000.0,W*71
$GPGGA,122745.909,5104.297,N,01335.885,E,1,12,1.0,0.0,M,0.0,M,,*64
$GPGSA,A,3,01,02,03,04,05,06,07,08,09,10,11,12,1.0,1.0,1.0*30
$GPRMC,122745.909,A,5104.297,N,01335.885,E,000.7,000.0,121021,000.0,W*76
$GPGGA,122746.909,5104.297,N,01335.885,E,1,12,1.0,0.0,M,0.0,M,,*67
$GPGSA,A,3,01,02,03,04,05,06,07,08,09,10,11,12,1.0,1.0,1.0*30
$GPRMC,122746.909,A,5104.297,N,01335.885,E,000.7,000.0,121021,000.0,W*75
$GPGGA,122747.909,5104.297,N,01335.885,E,1,12,1.0,0.0,M,0.0,M,,*66
$GPGSA,A,3,01,02,03,04,05,06,07,08,09,10,11,12,1.0,1.0,1.0*30
$GPRMC,122747.909,A,5104.297,N,01335.885,E,002.2,000.0,121021,000.0,W*73
$GPGGA,122748.909,5104.297,N,01335.885,E,1,12,1.0,0.0,M,0.0,M,,*69
$GPGSA,A,3,01,02,03,04,05,06,07,08,09,10,11,12,1.0,1.0,1.0*30
$GPRMC,122748.909,A,5104.297,N,01335.885,E,009.0,338.4,121021,000.0,W*79
$GPGGA,122749.909,5104.300,N,01335.884,E,1,12,1.0,0.0,M,0.0,M,,*66
$GPGSA,A,3,01,02,03,04,05,06,07,08,09,10,11,12,1.0,1.0,1.0*30
$GPRMC,122749.909,A,5104.300,N,01335.884,E,002.6,313.4,121021,000.0,W*72
$GPGGA,122750.909,5104.300,N,01335.883,E,1,12,1.0,0.0,M,0.0,M,,*69
$GPGSA,A,3,01,02,03,04,05,06,07,08,09,10,11,12,1.0,1.0,1.0*30
$GPRMC,122750.909,A,5104.300,N,01335.883,E,001.6,321.6,121021,000.0,W*7D
$GPGGA,122751.909,5104.301,N,01335.883,E,1,12,1.0,0.0,M,0.0,M,,*69
$GPGSA,A,3,01,02,03,04,05,06,07,08,09,10,11,12,1.0,1.0,1.0*30
$GPRMC,122751.909,A,5104.301,N,01335.883,E,001.6,321.6,121021,000.0,W*7D
$GPGGA,122752.909,5104.301,N,01335.882,E,1,12,1.0,0.0,M,0.0,M,,*6B
$GPGSA,A,3,01,02,03,04,05,06,07,08,09,10,11,12,1.0,1.0,1.0*30
$GPRMC,122752.909,A,5104.301,N,01335.882,E,001.5,000.0,121021,000.0,W*7A
$GPGGA,122753.909,5104.302,N,01335.882,E,1,12,1.0,0.0,M,0.0,M,,*69
$GPGSA,A,3,01,02,03,04,05,06,07,08,09,10,11,12,1.0,1.0,1.0*30
$GPRMC,122753.909,A,5104.302,N,01335.882,E,001.0,302.2,121021,000.0,W*7E
$GPGGA,122754.909,5104.302,N,01335.882,E,1,12,1.0,0.0,M,0.0,M,,*6E
$GPGSA,A,3,01,02,03,04,05,06,07,08,09,10,11,12,1.0,1.0,1.0*30
$GPRMC,122754.909,A,5104.302,N,01335.882,E,004.4,345.2,121021,000.0,W*7B
$GPGGA,122755.909,5104.303,N,01335.882,E,1,12,1.0,0.0,M,0.0,M,,*6E
$GPGSA,A,3,01,02,03,04,05,06,07,08,09,10,11,12,1.0,1.0,1.0*30
$GPRMC,122755.909,A,5104.303,N,01335.882,E,001.5,000.0,121021,000.0,W*7F
$GPGGA,122756.909,5104.303,N,01335.882,E,1,12,1.0,0.0,M,0.0,M,,*6D
$GPGSA,A,3,01,02,03,04,05,06,07,08,09,10,11,12,1.0,1.0,1.0*30
$GPRMC,122756.909,A,5104.303,N,01335.882,E,000.7,000.0,121021,000.0,W*7F
$GPGGA,122757.909,5104.304,N,01335.882,E,1,12,1.0,0.0,M,0.0,M,,*6B
$GPGSA,A,3,01,02,03,04,05,06,07,08,09,10,11,12,1.0,1.0,1.0*30
$GPRMC,122757.909,A,5104.304,N,01335.882,E,000.7,000.0,121021,000.0,W*79
$GPGGA,122758.909,5104.304,N,01335.882,E,1,12,1.0,0.0,M,0.0,M,,*64
$GPGSA,A,3,01,02,03,04,05,06,07,08,09,10,11,12,1.0,1.0,1.0*30
$GPRMC,122758.909,A,5104.304,N,01335.882,E,004.4,000.0,121021,000.0,W*71
$GPGGA,122759.909,5104.305,N,01335.882,E,1,12,1.0,0.0,M,0.0,M,,*64
$GPGSA,A,3,01,02,03,04,05,06,07,08,09,10,11,12,1.0,1.0,1.0*30
$GPRMC,122759.909,A,5104.305,N,01335.882,E,001.5,000.0,121021,000.0,W*75
$GPGGA,122800.909,5104.305,N,01335.882,E,1,12,1.0,0.0,M,0.0,M,,*67
$GPGSA,A,3,01,02,03,04,05,06,07,08,09,10,11,12,1.0,1.0,1.0*30
$GPRMC,122800.909,A,5104.305,N,01335.882,E,002.2,000.0,121021,000.0,W*72
$GPGGA,122801.909,5104.306,N,01335.882,E,1,12,1.0,0.0,M,0.0,M,,*65
$GPGSA,A,3,01,02,03,04,05,06,07,08,09,10,11,12,1.0,1.0,1.0*30
$GPRMC,122801.909,A,5104.306,N,01335.882,E,002.3,332.2,121021,000.0,W*71
$GPGGA,122802.909,5104.306,N,01335.881,E,1,12,1.0,0.0,M,0.0,M,,*65
$GPGSA,A,3,01,02,03,04,05,06,07,08,09,10,11,12,1.0,1.0,1.0*30
$GPRMC,122802.909,A,5104.306,N,01335.881,E,006.7,019.4,121021,000.0,W*7D
$GPGGA,122803.909,5104.308,N,01335.882,E,1,12,1.0,0.0,M,0.0,M,,*69
$GPGSA,A,3,01,02,03,04,05,06,07,08,09,10,11,12,1.0,1.0,1.0*30
$GPRMC,122803.909,A,5104.308,N,01335.882,E,005.2,057.8,121021,000.0,W*71
$GPGGA,122804.909,5104.309,N,01335.884,E,1,12,1.0,0.0,M,0.0,M,,*69
$GPGSA,A,3,01,02,03,04,05,06,07,08,09,10,11,12,1.0,1.0,1.0*30
$GPRMC,122804.909,A,5104.309,N,01335.884,E,018.0,099.0,121021,000.0,W*75
$GPGGA,122805.909,5104.308,N,01335.891,E,1,12,1.0,0.0,M,0.0,M,,*6D
$GPGSA,A,3,01,02,03,04,05,06,07,08,09,10,11,12,1.0,1.0,1.0*30
$GPRMC,122805.909,A,5104.308,N,01335.891,E,018.0,099.0,121021,000.0,W*71
